lon,lat,MunicipalityID,Department Name,Municipality Name,Rural Population,Urban Population,Total Population
-71.79661457,11.99139953,12552,La Guajira,Uribia,110055,7619,117674
-72.57466802,11.6088511,11760,La Guajira,Manaure,41518,26066,67584
-72.29807216,11.38568622,11664,La Guajira,Maicao,38656,85101,123757
-72.96150032,11.2506328,12405,La Guajira,Riohacha,31682,136183,167865
-73.44315927,11.09529337,12433,La Guajira,Dibulla,18704,3094,21798
-73.91668304,11.10873821,11670,Magdalena,Santa Marta,30148,385122,415270
-72.72180002,11.10211921,12516,La Guajira,Hatonuevo,7581,8802,16383
-72.70491375,10.95552258,12169,La Guajira,Barrancas,13273,13056,26329
-74.04297466,10.88913943,12438,Magdalena,Cienaga,14361,87624,101985
-74.83730623,10.98264998,11778,Atlantico,Barranquilla,4047,1142312,1146359
-74.64154619,10.86688752,12267,Magdalena,Sitionuevo,13832,13035,26867
-74.91310188,11.00261449,11889,Atlantico,Puerto Colombia,7183,20654,27837
-72.9589147,10.9021345,11728,La Guajira,Distraccion,7979,3983,11962
-72.79317531,10.79006805,11646,La Guajira,Fonseca,7879,18952,26831
-73.06558864,10.78134065,12161,La Guajira,San Juan Del Cesar,12141,21513,33654
-74.38256567,10.83370969,11978,Magdalena,Puebloviejo,16387,8607,24994
-74.98476837,10.89985889,12403,Atlantico,Tubara,4824,6091,10915
-74.88305245,10.8983592,12621,Atlantico,Galapa,3325,28687,32012
-74.78784967,10.89984267,12401,Atlantico,Soledad,855,460996,461851
-74.81085242,10.8392286,11840,Atlantico,Malambo,6022,95258,101280
-75.07621185,10.81851589,12429,Atlantico,Juan De Acosta,5444,9134,14578
-73.43551784,10.43566034,12025,Cesar,Valledupar,55384,299065,354449
-73.91346719,10.62245741,11683,Magdalena,Aracataca,15626,19894,35520
-74.92382426,10.78507286,12237,Atlantico,Baranoa,8731,42840,51571
-74.77340592,10.79000608,12144,Atlantico,Sabanagrande,1172,24227,25399
-74.85643249,10.76105238,11593,Atlantico,Polonuevo,2572,11325,13897
-75.15635087,10.73728793,12690,Atlantico,Piojo,2558,2459,5017
-74.99583487,10.740263,11996,Atlantico,Usiacuri,847,7957,8804
-75.28195237,10.68925595,12163,Bolivar,Santa Catalina,7744,4314,12058
-74.80094032,10.73184738,12217,Atlantico,Santo Tomas,1257,22617,23874
-74.77793294,10.68839642,11668,Atlantico,Palmar De Varela,878,22796,23674
-74.36614509,10.67144555,11580,Magdalena,El Reten,5263,13546,18809
-74.60462523,10.63373171,12203,Magdalena,Remolino,3279,5472,8751
-74.95717216,10.61636378,12294,Atlantico,Sabanalarga,19924,66707,86631
-74.80501751,10.5828422,12364,Atlantico,Ponedera,9179,9775,18954
-75.17079859,10.62450341,12123,Atlantico,Luruaco,12368,11190,23558
-75.46639117,10.421995,12310,Bolivar,Cartagena,50317,842228,892545
-73.67682986,10.27056179,12003,Cesar,Pueblo Bello,13072,4156,17228
-74.41199461,10.40800696,12126,Magdalena,Pivijay,16789,19229,36018
-72.97394599,10.57096436,12580,La Guajira,Villanueva,5327,18211,23538
-72.832643,10.57952718,12252,La Guajira,El Molino,1845,5470,7315
-73.89788664,10.45241414,12336,Magdalena,Fundacion,7130,49856,56986
-75.30711367,10.53777468,12664,Bolivar,Clemencia,2894,8820,11714
-75.13830998,10.49781548,11594,Atlantico,Repelon,7559,15314,22873
-74.72956512,10.49914535,11718,Magdalena,Salamina,3394,5010,8404
-74.88636788,10.47412924,12655,Atlantico,Candelaria,3254,8781,12035
-72.9842256,10.47993267,12060,La Guajira,Urumita,5928,7421,13349
-74.99602637,10.4447498,11588,Atlantico,Manati,1407,12403,13810
-75.35306388,10.43834545,12597,Bolivar,Santa Rosa,5706,12489,18195
-75.26148723,10.41591891,11890,Bolivar,Villanueva,1988,15588,17576
-74.68313044,10.33887602,12069,Magdalena,El Pinon,11218,5817,17035
-74.900319,10.37991127,11587,Atlantico,Campo De La Cruz,2640,16467,19107
-73.2488283,10.12394787,11773,Cesar,La Paz,8773,13101,21874
-75.20533036,10.33979065,12551,Bolivar,San Estanislao,4381,10931,15312
-72.98208891,10.37108825,11574,Cesar,Manaure,4088,7229,11317
-75.11926586,10.31074672,12532,Bolivar,Soplaviento,321,7960,8281
-75.09342059,10.35749242,12496,Bolivar,San Cristobal,1735,4826,6561
-75.37586545,10.32500332,11921,Bolivar,Turbaco,5332,57714,63046
-73.93327883,10.18543726,11724,Cesar,El Copey,6459,18512,24971
-74.97750287,10.33867519,12167,Atlantico,Santa Lucia,1358,11060,12418
-74.82646913,10.29371417,12285,Magdalena,Cerro San Antonio,4076,4243,8319
-75.00247777,10.21828821,11636,Bolivar,Calamar,9526,11196,20722
-73.25398628,10.23677541,12566,Cesar,San Diego,6461,7311,13772
-74.91998753,10.29770324,11784,Atlantico,Suan,486,9216,9702
-75.36890957,10.13519664,12584,Bolivar,Arjona,12956,47451,60407
-75.18553493,10.15704817,12649,Bolivar,Mahates,14302,8627,22929
-75.43865344,10.20661697,12141,Bolivar,Turbana,1558,11935,13493
-74.83520246,10.15470514,12274,Magdalena,Pedraza,5706,2325,8031
-74.54935502,10.08785424,12482,Magdalena,Chibolo,6017,10430,16447
-73.26929475,9.930926218,12497,Cesar,Agustin Codazzi,15404,38565,53969
-74.92768694,10.02690191,11681,Bolivar,El Guamo,3705,4121,7826
-75.50447484,9.805267332,11793,Sucre,San Onofre,28251,18132,46383
-75.07425826,9.949767812,11940,Bolivar,San Juan Nepomuceno,8787,23727,32514
-75.34693139,9.963428887,11703,Bolivar,Maria La Baja,27544,17851,45395
-73.8885667,9.929216195,12117,Cesar,Bosconia,2990,27895,30885
-74.73451105,9.914399268,12353,Magdalena,Tenerife,6936,5614,12550
-74.60274052,9.764552666,12492,Magdalena,Plato,13435,35760,49195
-74.09745802,9.825701692,12023,Magdalena,Ariguani,12734,18313,31047
-73.24521489,9.732536753,12369,Cesar,Becerril,4221,9720,13941
-75.11719167,9.819493023,11655,Bolivar,San Jacinto,2276,19317,21593
-75.16108225,9.696131108,12632,Bolivar,El Carmen De Bolivar,18529,49423,67952
-73.71509774,9.658758808,12657,Cesar,El Paso,16992,3816,20808
-74.90192614,9.74129234,12409,Bolivar,Zambrano,1286,9824,11110
-74.32030881,9.530134468,12455,Magdalena,Santa Ana,11779,11456,23235
-74.22497948,9.469392146,11823,Magdalena,Pijino Del Carmen,7891,6224,14115
-75.18510223,9.556176348,11980,Sucre,Ovejas,10461,11197,21658
-73.33665041,9.539099657,12008,Cesar,La Jagua De Ibirico,5232,16850,22082
-75.3225761,9.575448183,12041,Sucre,Chalan,1651,2537,4188
-74.8932695,9.537874821,12631,Bolivar,Cordoba,9669,3444,13113
-75.44213635,9.489281558,12001,Sucre,Tolu Viejo,13630,5325,18955
-75.36232707,9.511758313,11702,Sucre,Coloso,3149,3065,6214
-73.54415005,9.410130383,11913,Cesar,Chiriguana,8684,13462,22146
-73.97883443,9.489855671,11597,Cesar,Astrea,9530,8864,18394
-75.0273093,9.409179971,12343,Sucre,San Pedro,5408,11007,16415
-73.77037043,9.219281516,11949,Cesar,Chimichagua,19618,11375,30993
-75.20653652,9.424900326,11878,Sucre,Los Palmitos,10444,8871,19315
-75.32073383,9.384594365,12377,Sucre,Morroa,7350,5496,12846
-74.21522909,9.332417299,12553,Magdalena,San Sebastian De Buenavista,12099,5168,17267
-74.36292019,9.308403343,11725,Magdalena,San Zenon,7277,1627,8904
-74.73898571,9.14542823,11801,Bolivar,Magangue,41870,79645,121515
-74.95587475,9.316463014,11599,Sucre,Buenavista,1706,7256,8962
-75.76797279,9.351262958,11731,Cordoba,San Antero,11717,14406,26123
-75.95525809,9.325798536,12564,Cordoba,San Bernardo Del Viento,23228,8177,31405
-75.42897861,9.310248032,12288,Sucre,Sincelejo,17979,219639,237618
-74.65587178,9.32011432,12541,Bolivar,Talaigua Nuevo,6219,4867,11086
-75.06732492,9.24582924,11591,Sucre,San Luis De Since,8504,22144,30648
-75.57506477,9.327891135,12012,Sucre,Palmito,6921,4440,11361
-75.19410217,9.284864581,12513,Sucre,San Juan De Betulia,6095,6283,12378
-73.49586275,9.214602127,11662,Cesar,Curumani,9311,18249,27560
-74.15875731,9.222341314,12005,Magdalena,Guamal,18292,7216,25508
-75.25247965,9.203820507,12011,Sucre,Corozal,12354,45402,57756
-74.00047651,9.10623179,11732,Magdalena,El Banco,21475,33380,54855
-76.11287993,9.20452424,12501,Cordoba,Monitos,18258,5339,23597
-75.90612985,9.156641397,12345,Cordoba,Lorica,65899,44417,110316
-75.71182152,9.249537122,12491,Cordoba,Purisima,8532,6145,14677
-75.63565755,9.234721767,12623,Cordoba,Momil,5380,8712,14092
-74.58681117,9.125163294,12512,Bolivar,Mompos,18974,22591,41565
-74.6909509,9.232260491,12386,Bolivar,Cicuco,4275,6819,11094
-73.35325648,8.847668484,12480,Norte de Santander,El Carmen,13743,2634,16377
-75.51625413,9.138774053,12465,Cordoba,San Andres Sotavento,54592,8555,63147
-73.24385676,8.793772687,11971,Norte de Santander,Convencion,10529,6076,16605
-74.41177328,9.077031786,11983,Bolivar,San Fernando,10225,2740,12965
-75.3569911,9.156298036,12098,Sucre,Sampues,18172,18309,36481
-75.63809664,9.095372067,12145,Cordoba,Chima,10824,2815,13639
-74.28134767,9.063237965,12565,Bolivar,Margarita,7761,1645,9406
-74.97770076,9.133198837,12006,Sucre,Galeras,6854,10443,17297
-75.77752688,9.055480772,12095,Cordoba,Cotorra,11719,3394,15113
-75.36127402,9.008150436,12192,Cordoba,Chinu,22388,20886,43274
-73.16951807,8.747706773,11742,Norte de Santander,Teorama,15361,2162,17523
-76.17881286,8.995523839,12219,Cordoba,Puerto Escondido,18252,3534,21786
-72.83301236,8.676633138,12342,Norte de Santander,Tibu,22848,11925,34773
-74.97230461,8.835542053,11879,Sucre,San Benito Abad,17426,5546,22972
-75.91078608,8.975106023,12432,Cordoba,San Pelayo,32358,6902,39260
-73.78105953,8.864240897,12093,Cesar,Tamalameque,8869,5177,14046
-74.38109017,8.823709739,11686,Bolivar,Pinillos,20393,2408,22801
-73.59293824,8.925496386,12543,Cesar,Pailitas,4233,11669,15902
-74.75516668,8.812922754,12520,Sucre,Sucre,15579,6884,22463
-75.60555904,8.830220764,11609,Cordoba,Cienaga De Oro,32307,20838,53145
-74.12453068,8.966071644,12547,Bolivar,Hatillo De Loba,8734,2736,11470
-75.4328298,8.785256331,12502,Cordoba,Sahagun,42650,44985,87635
-73.94837019,8.81705647,12321,Bolivar,El Penon,5095,2712,7807
-74.04507747,8.805362422,12612,Bolivar,San Martin De Loba,8367,5881,14248
-76.30078782,8.87755506,12528,Cordoba,Los Cordobas,14531,3306,17837
-75.82181985,8.882079088,12272,Cordoba,Cerete,36823,47094,83917
-74.16284648,8.818492433,12570,Bolivar,Barranco De Loba,10235,4913,15148
-75.95781042,8.584313783,12265,Cordoba,Monteria,92395,286575,378970
-75.10930905,8.774293247,12679,Sucre,Caimito,8110,2938,11048
-76.42507609,8.645919494,11620,Antioquia,Arboletes,18525,12213,30738
-73.61087245,8.770666537,11854,Cesar,Pelaya,5866,10695,16561
-75.29583566,8.796272681,12666,Sucre,La Union,5234,5112,10346
-75.69168482,8.696793917,12615,Cordoba,San Carlos,19098,4524,23622
-76.25876337,8.748727334,11658,Cordoba,Canalete,13905,3410,17315
-73.05311119,8.654450077,11713,Norte de Santander,El Tarra,6978,3794,10772
-74.23005065,8.738882048,12115,Bolivar,Altos Del Rosario,5984,5373,11357
-73.8638114,8.703524036,11747,Bolivar,Regidor,5831,2965,8796
-76.51130612,8.683038935,12152,Antioquia,San Juan De Uraba,14171,6728,20899
-74.50647611,8.585479546,11654,Bolivar,Achi,16320,3324,19644
-73.6502772,8.597351532,11710,Cesar,La Gloria,8807,5779,14586
-74.72213932,8.542126875,12529,Sucre,Majagual,22175,9482,31657
-75.16779222,8.576287595,12590,Sucre,San Marcos,21175,29504,50679
-76.68190333,8.534542753,11812,Antioquia,Necocli,36740,11249,47989
-74.07616922,8.425536349,12140,Bolivar,Rio Viejo,14805,6255,21060
-77.30205342,8.406570601,12331,Choco,Acandi,5348,5107,10455
-74.30625813,8.478012398,12471,Bolivar,Tiquisio,14360,4426,18786
-76.31746466,8.422905048,11938,Antioquia,San Pedro De Uraba,17093,11679,28772
-75.39792844,8.463564942,12106,Cordoba,Pueblo Nuevo,20359,11177,31536
-73.16597738,8.441785605,12456,Norte de Santander,San Calixto,10764,1817,12581
-75.61641524,8.313321763,12146,Cordoba,Planeta Rica,23369,38323,61692
-74.68727375,8.368090349,11582,Sucre,Guaranda,9802,5696,15498
-73.62439764,8.243963259,11891,Cesar,Aguachica,13296,69039,82335
-75.04607332,8.241418495,12189,Cordoba,Ayapel,22086,20456,42542
-73.09632494,8.343893905,11665,Norte de Santander,Hacari,9038,1083,10121
-73.72424985,8.312270634,12370,Cesar,Gamarra,6484,7988,14472
-73.94070514,8.249968857,12105,Bolivar,Morales,13620,4903,18523
-74.45817243,7.995643584,12306,Bolivar,Montecristo,9893,7080,16973
-73.40032407,8.367355615,11708,Cesar,Gonzalez,7659,1593,9252
-72.82039209,8.234241538,12276,Norte de Santander,Sardinata,14308,8425,22733
-76.73758234,8.004211403,12561,Antioquia,Turbo,74660,47259,121919
-76.2233103,8.228316272,12120,Cordoba,Valencia,21999,12374,34373
-72.52179113,8.073408335,12376,Norte de Santander,Cucuta,20012,567664,587676
-73.34917448,8.216439525,12517,Norte de Santander,Ocana,11690,78827,90517
-74.66475501,8.166059061,12638,Bolivar,San Jacinto Del Cauca,8342,2593,10935
-72.46243453,8.305181209,12039,Norte de Santander,Puerto Santander,673,8047,8720
-77.11285371,8.105915987,11771,Choco,Unguia,10275,4269,14544
-75.44481252,8.176978963,12329,Cordoba,Buenavista,12251,6760,19011
-76.17713132,7.805740478,11755,Cordoba,Tierralta,45895,32875,78770
-73.2079417,8.240063718,11765,Norte de Santander,La Playa,7732,663,8395
-73.50676129,8.158836091,12431,Cesar,Rio De Oro,8678,5728,14406
-74.13512013,8.19705314,12414,Bolivar,Arenal,11451,3963,15414
-72.65985762,8.065442489,12562,Norte de Santander,El Zulia,9004,11305,20309
-73.18507643,8.000049161,12110,Norte de Santander,Abrego,20119,14373,34492
-74.85779925,7.998044784,12222,Antioquia,Nechi,10228,10440,20668
-72.94723373,8.060009339,12286,Norte de Santander,Bucarasica,4011,550,4561
-75.72657034,7.878992509,12324,Cordoba,Montelibano,24223,49024,73247
-74.67892873,7.744438902,12154,Antioquia,El Bagre,20625,25395,46020
-73.97922228,7.816325509,12575,Bolivar,Simiti,11734,6684,18418
-75.30101629,8.030584205,11981,Cordoba,La Apartada,2767,9935,12702
-73.80505743,7.536626719,12440,Santander,Puerto Wilches,15798,15705,31503
-74.27587905,7.697617558,12318,Bolivar,Santa Rosa Del Sur,20023,13992,34015
-73.61078112,7.91372539,11638,Cesar,San Martin,9567,7745,17312
-73.00671809,7.915562928,12249,Norte de Santander,Villa Caro,3272,1772,5044
-76.57313265,7.904052362,12610,Antioquia,Apartado,19518,111887,131405
-75.0134869,7.842802572,12407,Antioquia,Caucasia,18064,69468,87532
-73.46752931,7.836608745,11895,Cesar,San Alberto,5809,14209,20018
-72.86757872,7.941929268,12446,Norte de Santander,Lourdes,2227,1221,3448
-72.8220057,7.878482117,12215,Norte de Santander,Gramalote,3368,2961,6329
-75.23403347,7.666670501,12595,Antioquia,Caceres,22736,6209,28945
-75.78311835,7.681812416,12087,Cordoba,Puerto Libertador,22011,13175,35186
-72.73753697,7.869308857,12173,Norte de Santander,Santiago,1503,1176,2679
-72.63787245,7.828870371,12545,Norte de Santander,San Cayetano,2906,1587,4493
-77.34626852,7.374159189,12148,Choco,Riosucio,7202,7121,14323
-76.66269624,7.800925974,11673,Antioquia,Carepa,14020,29105,43125
-72.89475899,7.755031596,12260,Norte de Santander,Salazar,5851,3600,9451
-72.52355022,7.755445373,12439,Norte de Santander,Villa Del Rosario,3079,66754,69833
-73.19647695,7.65717673,12304,Norte de Santander,Cachira,9125,1494,10619
-72.7002872,7.719156503,12150,Norte de Santander,Durania,2308,1981,4289
-72.56919969,7.705405009,12671,Norte de Santander,Los Patios,2162,65119,67281
-73.40718934,7.686024683,11726,Norte de Santander,La Esperanza,9631,1322,10953
-76.63891542,7.64417482,12392,Antioquia,Chigorodo,9280,49631,58911
-75.5049078,7.493027716,12680,Antioquia,Taraza,15091,17852,32943
-72.68839621,7.602173448,12134,Norte de Santander,Bochalema,4242,2341,6583
-73.37630561,7.447371519,12298,Santander,Rionegro,23230,6152,29382
-72.89673244,7.59050211,11719,Norte de Santander,Arboledas,6971,2299,9270
-74.87564682,7.482904123,11772,Antioquia,Zaragoza,14357,12602,26959
-73.5968779,7.418422154,12277,Santander,Sabana De Torres,8113,11659,19772
-72.6041309,7.55544869,12653,Norte de Santander,Chinacota,5227,9557,14784
-72.53956439,7.566897602,11666,Norte de Santander,Ragonvalia,4025,2775,6800
-73.0590229,7.516957518,12097,Santander,Surata,2990,672,3662
-72.8240901,7.470753632,12275,Norte de Santander,Cucutilla,7159,1288,8447
-73.19559248,7.516989379,12085,Santander,El Playon,7597,5551,13148
-72.65964781,7.458149353,11816,Norte de Santander,Pamplonita,3970,822,4792
-72.51920713,7.466716153,11806,Norte de Santander,Herran,3388,1113,4501
-74.24468615,7.312723273,12665,Bolivar,San Pablo,6058,20952,27010
-72.99737648,7.407450141,12445,Santander,California,944,849,1793
-77.70277557,7.128094521,12325,Choco,Jurado,1934,1675,3609
-74.65884695,7.247706925,12428,Antioquia,Segovia,7023,28048,35071
-72.93287188,7.335391333,12278,Santander,Vetas,1180,1169,2349
-72.33902509,7.20793993,11730,Norte de Santander,Toledo,13006,4266,17272
-73.08195833,7.336680666,11608,Santander,Matanza,4703,1137,5840
-74.12968824,7.229195989,12539,Bolivar,Cantagallo,4614,3197,7811
-72.69951449,7.349397367,12172,Norte de Santander,Pamplona,4508,48639,53147
-75.12182054,7.177462831,12024,Antioquia,Anori,9736,5280,15016
-75.39568841,7.273885659,11939,Antioquia,Valdivia,12442,4848,17290
-75.87050594,7.256721846,11735,Antioquia,Ituango,19072,6016,25088
-73.31566256,7.197123372,12646,Santander,Lebrija,17082,13898,30980
-72.55286492,7.245581261,11581,Norte de Santander,Labateca,4554,1298,5852
-72.79878502,7.298099517,11671,Norte de Santander,Mutiscua,3316,591,3907
-73.00714336,7.24488646,12358,Santander,Charta,2559,583,3142
-72.67831141,7.250459456,12479,Norte de Santander,Cacota,1841,742,2583
-72.81900911,7.147377322,12241,Norte de Santander,Silos,4344,940,5284
-74.99203561,6.979028692,11572,Antioquia,Amalfi,9589,10936,20525
-74.17685548,6.90737842,12620,Antioquia,Yondo,7917,7180,15097
-73.31728026,7.068632066,12078,Santander,Giron,17850,117941,135791
-74.57260183,6.973594089,12611,Antioquia,Remedios,14657,8112,22769
-72.96558089,7.157277584,11945,Santander,Tona,6181,509,6690
-75.46779615,6.988398376,11629,Antioquia,Yarumal,14637,26603,41240
-72.5507277,7.032020283,11894,Norte de Santander,Chitaga,6771,3408,10179
-73.13278616,7.137159365,12589,Santander,Bucaramanga,7296,509216,516512
-73.78312723,7.044181963,11991,Santander,Barrancabermeja,19248,170810,190058
-75.5735733,7.110453766,11616,Antioquia,Briceno,6610,2173,8783
-75.88534579,7.045724243,11988,Antioquia,Peque,8039,1582,9621
-76.32476978,6.995846201,11612,Antioquia,Dabeiba,15480,8604,24084
-75.31522406,7.034269608,12160,Antioquia,Campamento,7238,2450,9688
-73.52244869,6.868160552,11633,Santander,San Vicente De Chucuri,20562,12705,33267
-73.08583066,7.063172262,11932,Santander,Floridablanca,10824,243859,254683
-73.39157675,6.996235495,11972,Santander,Betulia,4167,1183,5350
-73.0237932,6.955364073,12198,Santander,Piedecuesta,24628,92736,117364
-75.72169442,7.005625814,12282,Antioquia,Toledo,4352,1345,5697
-70.54598851,6.795668129,12037,Arauca,Arauca,12923,62634,75557
-72.93157442,6.938192816,11899,Santander,Santa Barbara,1951,360,2311
-75.80395123,6.895415683,11968,Antioquia,Sabanalarga,5616,2577,8193
-71.88171021,6.88256716,11600,Arauca,Saravena,14222,28544,42766
-71.2966662,6.764328096,12305,Arauca,Arauquita,21667,15078,36745
-72.84791624,6.915953312,11738,Santander,Guaca,4960,1956,6916
-76.11097134,6.96010748,12205,Antioquia,Uramita,5927,2377,8304
-72.21172442,6.856343022,12374,Boyaca,Cubara,4876,1738,6614
-76.70850062,6.823235844,12114,Antioquia,Murindo,2636,1100,3736
-75.65987865,6.934637841,12263,Antioquia,San Andres De Cuerquia,4916,2451,7367
-76.03076503,6.837605167,12055,Antioquia,Canasgordas,11384,5432,16816
-72.67103103,6.89069591,12451,Santander,Cerrito,3841,2478,6319
-73.29587308,6.818452967,12412,Santander,Zapatoca,3663,5786,9449
-75.9170074,6.81199492,12159,Antioquia,Buritica,5460,1495,6955
-74.78696593,6.816655844,11920,Antioquia,Vegachi,4824,6469,11293
-75.36101888,6.858287079,11635,Antioquia,Angostura,10423,2096,12519
-75.23817855,6.855809778,11925,Antioquia,Guadalupe,4342,1889,6231
-73.71890566,6.648616709,12389,Santander,Simacota,6686,2224,8910
-72.83406932,6.783763015,11745,Santander,San Andres,7016,2767,9783
-76.31932037,6.709327579,12073,Antioquia,Frontino,12416,7615,20031
-75.6975646,6.822048022,12486,Antioquia,San Jose De La Montana,1002,2101,3103
-75.20550618,6.698480967,12339,Antioquia,Gomez Plata,6180,5072,11252
-72.63435441,6.770203828,11667,Santander,Concepcion,3410,2498,5908
-73.12489844,6.797344699,12678,Santander,Los Santos,9430,1547,10977
-77.09710726,6.481317454,11942,Choco,Bojaya,5369,4572,9941
-73.6154204,6.670372219,11929,Santander,El Carmen De Chucuri,13344,4754,18098
-75.46002424,6.669882622,12002,Antioquia,Santa Rosa De Osos,16322,14703,31025
-73.98223946,6.67653434,12349,Santander,Puerto Parra,3679,2835,6514
-71.89263547,6.636953065,11794,Arauca,Fortul,11842,10009,21851
-76.68829693,6.442959271,11699,Antioquia,Vigia Del Fuerte,3365,2122,5487
-72.44230505,6.654567082,11881,Boyaca,Chiscas,4337,1035,5372
-75.32130738,6.748060853,11947,Antioquia,Carolina,944,3027,3971
-74.93871772,6.633963239,11592,Antioquia,Yolombo,13934,6091,20025
-73.02877079,6.704501268,11824,Santander,Aratoca,6188,2207,8395
-77.36170964,6.304711755,11994,Choco,Bahia Solano,4864,4230,9094
-72.94909193,6.733753854,12383,Santander,Cepita,1541,481,2022
-75.79851119,6.722169948,12368,Antioquia,Liborina,7619,1856,9475
-75.65686908,6.624096899,12050,Antioquia,Belmira,4505,1683,6188
-74.790176,6.702571223,11642,Antioquia,Yali,4753,2981,7734
-73.34231555,6.662666051,12663,Santander,Galan,2215,777,2992
-72.77102764,6.707484779,11909,Santander,Malaga,3524,15182,18706
-74.17447717,6.42830271,12372,Santander,Cimitarra,21521,12772,34293
-73.17780959,6.66554723,11614,Santander,Villanueva,3473,3505,6978
-76.09037117,6.625740004,11844,Antioquia,Abriaqui,1832,858,2690
-72.59324839,6.647990147,12348,Santander,Carcasi,4588,612,5200
-74.53934729,6.47164902,12531,Antioquia,Puerto Berrio,4760,34193,38953
-73.10966363,6.698568009,12287,Santander,Jordan,1100,64,1164
-72.27308088,6.536789587,12283,Boyaca,Guican,6202,1667,7869
-75.95591307,6.661281492,12033,Antioquia,Giraldo,2987,1201,4188
-73.2338683,6.645561905,11883,Santander,Barichara,4997,2654,7651
-72.70708206,6.646518032,11761,Santander,Enciso,3362,627,3989
-72.85224653,6.626248159,11867,Santander,Molagavita,4979,785,5764
-70.10032898,6.328157243,11923,Arauca,Cravo Norte,1270,2391,3661
-71.76805443,6.356920495,12647,Arauca,Tame,28442,19134,47576
-72.77361513,6.611116596,11858,Santander,San Jose De Miranda,3919,936,4855
-75.57156136,6.590011028,12408,Antioquia,Entrerrios,4504,3943,8447
-73.04601392,6.606302322,11866,Santander,Curiti,8117,3347,11464
-70.93611204,6.388666651,12573,Arauca,Puerto Rondon,1307,2655,3962
-75.78611688,6.603518387,12315,Antioquia,Olaya,2604,312,2916
-75.91571317,6.535384257,11833,Antioquia,Santafe De Antioquia,9267,13636,22903
-73.26765973,6.564402352,12673,Santander,Cabrera,1458,466,1924
-73.13870921,6.544548751,12537,Santander,San Gil,6432,37087,43519
-74.73520042,6.519849052,12441,Antioquia,Maceo,4630,3000,7630
-72.98458255,6.474205631,12297,Santander,Mogotes,7401,3551,10952
-73.37935742,6.546895849,11843,Santander,Hato,1659,742,2401
-75.7626273,6.515212754,12648,Antioquia,Sopetran,7431,5954,13385
-72.66509627,6.557174548,11679,Santander,San Miguel,2275,408,2683
-76.26583153,6.342301946,12166,Antioquia,Urrao,23798,15125,38923
-72.70351156,6.500306455,12096,Santander,Capitanejo,2907,3245,6152
-75.09414332,6.545065437,12216,Antioquia,Cisneros,1878,7804,9682
-72.61074996,6.497328082,12519,Santander,Macaravita,2447,306,2753
-72.77631854,6.497179141,12622,Boyaca,Covarachia,2828,496,3324
-75.36861907,6.498135085,12654,Antioquia,Don Matias,6304,11397,17701
-75.15464067,6.473477724,11795,Antioquia,Santo Domingo,9368,2199,11567
-73.18875978,6.508422815,11817,Santander,Pinchote,3277,1143,4420
-73.30739047,6.497388403,12261,Santander,Palmar,2048,835,2883
-72.87377047,6.441582988,12190,Santander,San Joaquin,2200,748,2948
-72.83240778,6.32436931,12009,Santander,Onzaga,4527,1180,5707
-74.9524644,6.444204188,11974,Antioquia,San Roque,12256,5901,18157
-73.72583336,6.232810978,12498,Santander,Velez,10065,9690,19755
-73.85135199,6.306517507,12523,Santander,Landazuri,12075,3117,15192
-73.2550225,6.456464634,11837,Santander,Socorro,6079,22997,29076
-75.99146448,6.425562422,12165,Antioquia,Caicedo,6236,1450,7686
-75.3432533,6.430761902,12021,Antioquia,Barbosa,23831,18608,42439
-72.49774757,6.467010223,11954,Boyaca,El Espino,2767,1230,3997
-75.5735205,6.452371648,12210,Antioquia,San Pedro,11301,10765,22066
-75.72720658,6.438226927,11871,Antioquia,San Jeronimo,8110,3517,11627
-73.60036657,6.3969417,12582,Santander,Santa Helena Del Opon,3898,575,4473
-73.18027843,6.437489661,12137,Santander,Paramo,2546,1125,3671
-72.54099233,6.417446778,12068,Boyaca,Guacamayas,1546,586,2132
-73.12946454,6.419835005,11695,Santander,Valle De San Jose,3497,1818,5315
-72.57795923,6.377038308,11753,Boyaca,San Mateo,3319,1471,4790
-73.42533166,6.362893779,12639,Santander,Chima,2513,825,3338
-72.47515598,6.404933136,12250,Boyaca,Panqueba,1214,645,1859
-72.72189721,6.396913539,12430,Boyaca,Tipacoque,2902,953,3855
-74.74194128,6.326497892,12236,Antioquia,Caracoli,2020,2835,4855
-75.23380019,6.380897836,12281,Antioquia,Concepcion,3033,1476,4509
-75.4623076,6.367892256,12485,Antioquia,Girardota,17555,25011,42566
-72.64308686,6.30736249,12656,Boyaca,Boavita,5935,2861,8796
-75.51865775,6.352178021,11820,Antioquia,Copacabana,8405,52829,61234
-75.60205263,6.356132892,11729,Antioquia,Bello,13452,358139,371591
-75.80408516,6.323917711,11649,Antioquia,Ebejico,10383,2128,12511
-73.28150168,6.37287828,12362,Santander,Palmas Del Socorro,1819,624,2443
-75.92121123,6.305319954,11845,Antioquia,Anza,6260,1155,7415
-75.11498943,6.35254241,11965,Antioquia,Alejandria,1920,1896,3816
-72.43577754,6.328383917,11779,Boyaca,El Cocuy,2902,2680,5582
-75.01462847,6.303195011,12527,Antioquia,San Rafael,7128,6402,13530
-73.2099106,6.348763307,12065,Santander,Confines,2390,363,2753
-73.13683223,6.343754133,11575,Santander,Ocamonte,4343,641,4984
-75.63644852,6.26518555,12086,Antioquia,Medellin,38813,2175681,2214494
-75.33638047,6.304428956,12495,Antioquia,San Vicente,12615,6823,19438
-72.98807951,6.228408989,12635,Santander,Coromoro,6463,913,7376
-73.48398357,6.293180591,12197,Santander,Contratacion,1069,2952,4021
-73.63711368,6.202727377,11876,Santander,La Paz,4838,773,5611
-73.1758713,6.175128807,11964,Santander,Charala,5394,6028,11422
-72.7242319,6.299658854,11955,Boyaca,Soata,3561,5752,9313
-73.3284908,6.306968909,11653,Santander,Guapota,1765,506,2271
-75.23943942,6.243778838,12071,Antioquia,Penol,7998,8243,16241
-76.67695628,5.939359468,12659,Choco,Quibdo,11752,101134,112886
-72.56448657,6.242617433,12300,Boyaca,La Uvita,2422,1199,3621
-73.29090856,6.22695239,12271,Santander,Oiba,6376,4607,10983
-74.91245547,6.182652903,12447,Antioquia,San Carlos,9549,6277,15826
-75.45049321,6.263612647,11645,Antioquia,Guarne,25650,13891,39541
-73.5295868,6.248574051,12559,Santander,El Guacamayo,1880,423,2303
-68.04362116,5.825149064,12609,Vichada,Puerto Carreno,3256,10032,13288
-73.40787894,6.205992306,11641,Santander,Guadalupe,3904,1692,5596
-75.17324126,6.22890477,12231,Antioquia,Guatape,1594,4244,5838
-75.97315902,6.184011173,12046,Antioquia,Betulia,11566,5159,16725
-75.76320655,6.222351841,11585,Antioquia,Heliconia,3847,2809,6656
-72.46774288,6.07790023,12238,Boyaca,Chita,8913,1931,10844
-72.75672432,6.186068376,11596,Boyaca,Susacon,2755,943,3698
-74.15038368,6.098690188,11777,Santander,Bolivar,12581,1415,13996
-74.71344654,6.110756788,12056,Antioquia,Puerto Nare,10161,6529,16690
-74.48137127,5.940038461,11922,Boyaca,Puerto Boyaca,16495,33806,50301
-71.20899966,6.077861511,12373,Casanare,Hato Corozal,6478,3613,10091
-75.32058398,6.16654384,12630,Antioquia,Marinilla,13073,32475,45548
-75.82478798,6.162439993,11583,Antioquia,Armenia,3434,1762,5196
-75.42687967,6.153532271,12080,Antioquia,Rionegro,35850,64652,100502
-72.36620891,6.135512003,12488,Casanare,La Salina,796,514,1310
-75.14048023,6.114133783,11827,Antioquia,Granada,5729,4060,9789
-75.53041867,6.070348083,12316,Antioquia,Retiro,8913,8063,16976
-73.52746038,6.160192527,11979,Santander,Aguada,1884,233,2117
-75.63116715,6.178741029,12644,Antioquia,Itagui,21779,213237,235016
-75.58709654,6.145351955,11992,Antioquia,Envigado,8688,165420,174108
-69.50636961,5.504024614,12070,Vichada,La Primavera,5787,4829,10616
-75.72765722,6.123186721,12253,Antioquia,Angelopolis,3491,4150,7641
-73.06736618,6.05335968,11619,Santander,Encino,2300,411,2711
-75.66639719,6.140715296,11720,Antioquia,La Estrella,23751,28812,52563
-73.37008445,6.082220992,12338,Santander,Suaita,9006,1969,10975
-72.59741267,6.111316959,12135,Boyaca,Jerico,4099,617,4716
-73.98946686,6.06872,12111,Santander,El Penon,4796,804,5600
-75.91538991,6.063017192,11811,Antioquia,Concordia,13270,8150,21420
-75.62737296,6.128914753,12223,Antioquia,Sabaneta,9238,35242,44480
-75.26668426,6.123370075,11746,Antioquia,El Santuario,6457,19830,26287
-72.75320885,6.105846748,12625,Boyaca,Sativanorte,2185,590,2775
-73.53755439,6.102035797,12010,Santander,San Benito,3502,405,3907
-72.8796334,6.051330591,12505,Boyaca,Tutaza,2058,196,2254
-75.81856413,6.056348788,12489,Antioquia,Titiribi,6558,6759,13317
-75.26867021,5.959759406,11912,Antioquia,El Carmen De Viboral,18281,22731,41012
-74.96012524,6.003869676,11736,Antioquia,San Luis,6303,4706,11009
-72.58113096,5.908995895,12464,Boyaca,Socota,9170,1125,10295
-75.63908383,6.039077571,12503,Antioquia,Caldas,15303,52696,67999
-73.65391972,6.063120116,11986,Santander,Chipata,4500,651,5151
-76.02969464,5.991760293,11787,Antioquia,Salgar,10321,7885,18206
-72.24797817,6.027560146,12420,Casanare,Sacama,663,1043,1706
-73.96628584,5.969948961,12510,Santander,Sucre,8824,432,9256
-75.16983352,6.005794356,12463,Antioquia,Cocorna,11126,3993,15119
-70.88008665,5.758143477,11917,Casanare,Paz De Ariporo,10666,16480,27146
-73.51107469,6.044635922,12402,Boyaca,Santana,5642,2211,7853
-75.7213444,6.023782944,12094,Antioquia,Amaga,13085,14070,27155
-72.74009314,6.046239449,12387,Boyaca,Sativasur,1041,310,1351
-73.59412404,6.026826531,12104,Santander,Guepsa,2399,1886,4285
-72.78856623,6.002192666,12650,Boyaca,Paz De Rio,2155,3103,5258
-75.44723186,5.996192639,11995,Antioquia,La Ceja,7981,38287,46268
-77.07600707,5.629387079,12385,Choco,Alto Baudo,22739,6222,28961
-72.70072815,5.929258578,12542,Boyaca,Socha,3988,3605,7593
-75.37058912,5.940584607,12596,Antioquia,La Union,8575,9267,17842
-72.92481063,5.97630555,12124,Boyaca,Belen,4853,4188,9041
-73.45760439,5.961668857,12604,Boyaca,Chitaraque,5644,1067,6711
-73.55959716,5.976808862,11704,Boyaca,San Jose De Pare,4750,969,5719
-74.70409376,5.939640943,12619,Antioquia,Puerto Triunfo,11569,4679,16248
-72.24096022,5.857198771,11782,Casanare,Tamara,5096,2022,7118
-73.36787822,5.90273457,12693,Santander,Gambita,4739,429,5168
-75.79904468,5.954168611,11868,Antioquia,Venecia,7263,6156,13419
-77.32036067,5.681482541,11651,Choco,Nuqui,4468,3157,7625
-73.63726323,5.951605713,11847,Santander,Barbosa,5917,20129,26046
-74.03839316,5.890138685,11689,Santander,La Belleza,6779,1683,8462
-75.59616472,5.868709814,12317,Antioquia,Santa Barbara,12945,10645,23590
-73.71737938,5.933968369,12361,Santander,Guavata,3645,757,4402
-76.22965539,5.780114246,11706,Choco,El Carmen De Atrato,6648,5201,11849
-72.9912605,5.936477225,12007,Boyaca,Cerinza,2810,1502,4312
-73.18394403,5.808498427,11625,Boyaca,Paipa,12338,15428,27766
-73.08988809,5.863611731,12548,Boyaca,Duitama,14403,93003,107406
-75.53075976,5.91328851,12587,Antioquia,Montebello,5535,1988,7523
-75.69783061,5.878650484,12139,Antioquia,Fredonia,14084,8608,22692
-73.01343924,5.885155155,11903,Boyaca,Santa Rosa De Viterbo,6263,6986,13249
-74.97899991,5.859743644,11621,Antioquia,San Francisco,4118,2277,6395
-72.87078257,5.894272329,12206,Boyaca,Beteitiva,2084,395,2479
-73.51365805,5.894339626,12500,Boyaca,Togui,4514,715,5229
-73.57774934,5.843159796,12444,Boyaca,Moniquira,11846,10006,21852
-75.84655635,5.868971822,11586,Antioquia,Tarso,3994,3161,7155
-72.75386231,5.848162813,12365,Boyaca,Tasco,5083,1842,6925
-76.05590603,5.844708893,12422,Antioquia,Bolivar,11968,16311,28279
-73.69286867,5.816583976,12337,Santander,Puente Nacional,9139,5399,14538
-75.45215189,5.795307338,11832,Antioquia,Abejorral,13978,6271,20249
-75.08079281,5.74690904,11839,Antioquia,Sonson,23196,15583,38779
-73.83525295,5.859829353,12636,Santander,Jesus Maria,2649,806,3455
-72.95024915,5.828077555,12090,Boyaca,Floresta,3350,1534,4884
-74.22945399,5.733258874,11796,Boyaca,Otanche,6545,3918,10463
-75.87615559,5.794970852,12155,Antioquia,Pueblorrico,4168,4126,8294
-75.77579487,5.762592419,11966,Antioquia,Jerico,5006,7783,12789
-74.01578465,5.803869637,12129,Santander,Florian,5072,1306,6378
-73.8645864,5.770643249,11659,Santander,Albania,4035,438,4473
-72.87519062,5.790688351,12378,Boyaca,Corrales,971,1573,2544
-73.28594006,5.761790891,12311,Boyaca,Sotaquira,8245,721,8966
-72.89696245,5.811485191,11924,Boyaca,Busbanza,584,301,885
-72.50766753,5.709180969,12576,Boyaca,Pisba,1190,343,1533
-75.6291183,5.74344571,11919,Antioquia,La Pintada,1152,5914,7066
-73.46781846,5.723895303,12299,Boyaca,Arcabuco,3402,1796,5198
-74.38777764,5.573724288,11764,Cundinamarca,Yacopi,13108,3303,16411
-72.75440816,5.76861827,12381,Boyaca,Gameza,4105,1564,5669
-71.9656621,5.645970102,12162,Casanare,Pore,4283,3685,7968
-75.94570844,5.77052537,12574,Antioquia,Hispania,1790,3031,4821
-72.38875976,5.626773179,12350,Boyaca,Paya,2155,493,2648
-74.0261697,5.675772125,12641,Boyaca,Pauna,7765,2573,10338
-75.72170621,5.670343576,12398,Antioquia,Tamesis,9899,6488,16387
-76.03045348,5.71390082,12602,Antioquia,Betania,6436,3810,10246
-73.56957184,5.721837305,12687,Boyaca,Gachantiva,2695,390,3085
-73.35743186,5.668674239,11948,Boyaca,Combita,12147,834,12981
-72.956039,5.747331408,11993,Boyaca,Nobsa,9970,5224,15194
-73.02982033,5.718110715,12057,Boyaca,Tibasosa,8442,4184,12626
-74.60205017,5.607476786,12208,Cundinamarca,Puerto Salgar,4252,11267,15519
-73.62975398,5.702126994,12307,Boyaca,Santa Sofia,2343,778,3121
-72.85454739,5.735337842,12015,Boyaca,Topaga,2428,1255,3683
-73.78138691,5.687878347,12624,Boyaca,Saboya,12193,764,12957
-75.96883112,5.601480103,11852,Antioquia,Andes,22415,19176,41591
-75.1215491,5.704983804,12228,Antioquia,Argelia,7250,2841,10091
-74.13723602,5.666388051,11626,Boyaca,San Pablo De Borbur,9661,1263,10924
-72.71728289,5.674518619,11813,Boyaca,Mongua,3462,1802,5264
-72.91190101,5.640116761,12592,Boyaca,Sogamoso,20266,96828,117094
-75.65950851,5.630761117,12487,Antioquia,Valparaiso,3155,3169,6324
-76.42830409,5.58798565,11712,Choco,Lloro,7506,2742,10248
-75.48740396,5.590258673,12034,Caldas,Aguadas,14041,10267,24308
-73.95875832,5.708028573,12153,Boyaca,Tunungua,1332,288,1620
-72.85727927,5.665739189,12186,Boyaca,Mongui,2321,2681,5002
-73.83847155,5.6136228,12199,Boyaca,Chiquinquira,8288,47498,55786
-73.93309381,5.659254884,12218,Boyaca,Briceno,2194,554,2748
-73.21398928,5.645889053,11637,Boyaca,Tuta,6808,2176,8984
-72.11680462,5.504128791,12235,Casanare,Nunchia,6583,1837,8420
-73.54899608,5.634789039,12458,Boyaca,Villa De Leyva,5213,6819,12032
-73.0507987,5.640433447,12030,Boyaca,Firavitoba,4229,2087,6316
-73.6524926,5.615493479,12187,Boyaca,Sutamarchan,4866,1254,6120
-73.43265105,5.628406716,12322,Boyaca,Motavita,6148,624,6772
-75.83245927,5.573276404,12130,Antioquia,Jardin,7468,6965,14433
-75.21739759,5.584218577,12269,Antioquia,Narino,13054,2525,15579
-72.62354129,5.509116917,11828,Boyaca,Labranzagrande,4295,1050,5345
-73.49619417,5.62009477,11604,Boyaca,Chiquiza,5970,103,6073
-76.27265237,5.476825385,12633,Choco,Bagado,6082,2372,8454
-74.05439807,5.557345991,12183,Boyaca,Maripi,7010,904,7914
-74.27711275,5.562287602,12472,Boyaca,Quipama,7118,1675,8793
-73.31138261,5.574768878,12091,Boyaca,Oicata,2535,287,2822
-72.9019151,5.403409973,11997,Boyaca,Aquitania,10762,5830,16592
-72.98728139,5.586352522,12264,Boyaca,Iza,1215,901,2116
-73.18540197,5.558229537,11721,Boyaca,Toca,7139,3422,10561
-73.49703457,5.573997832,12232,Boyaca,Sora,2507,469,2976
-73.41675727,5.51330144,11930,Boyaca,Tunja,7475,146621,154096
-73.71052511,5.566377686,12224,Boyaca,Tinjaca,2527,412,2939
-73.10215639,5.474706648,11650,Boyaca,Pesca,7385,2377,9762
-73.28469645,5.540845824,12067,Boyaca,Chivata,3374,1675,5049
-73.91961325,5.54688851,12603,Boyaca,Caldas,3805,245,4050
-73.5658752,5.544323659,12290,Boyaca,Sachica,2204,1664,3868
-73.77874177,5.524104802,11902,Boyaca,San Miguel De Sema,4133,479,4612
-75.66962632,5.541438123,12185,Antioquia,Caramanta,2924,2586,5510
-74.16574295,5.518883071,12448,Boyaca,Muzo,4692,5545,10237
-72.95924894,5.551899463,12074,Boyaca,Cuitiva,1804,207,2011
-75.51643998,5.486775559,12035,Caldas,Pacora,8714,6482,15196
-74.87365204,5.426281444,12158,Caldas,Victoria,5437,3728,9165
-73.86944012,5.504150101,11677,Cundinamarca,Simijaca,5259,5758,11017
-73.65657336,5.483952398,12481,Boyaca,Raquira,10040,2482,12522
-77.23421814,4.988572344,12143,Choco,Bajo Baudo,13752,2623,16375
-73.49011259,5.515531055,12142,Boyaca,Cucaita,2972,1596,4568
-71.5970583,5.205331722,11946,Casanare,San Luis De Palenque,5559,1856,7415
-73.03228637,5.449136182,11956,Boyaca,Tota,5084,592,5676
-72.27868822,5.218286442,12184,Casanare,Yopal,16604,90218,106822
-74.54398218,5.365503435,12177,Cundinamarca,Caparrapi,13980,2503,16483
-71.1967868,5.342000793,11691,Casanare,Trinidad,5345,6133,11478
-73.5500977,5.447395225,12344,Boyaca,Samaca,12752,4862,17614
-70.65984765,5.021691762,12049,Vichada,Santa Rosalia,1388,1862,3250
-75.20420959,5.388396428,12614,Caldas,Pensilvania,18400,8026,26426
-75.78961212,5.430308176,11715,Caldas,Riosucio,38072,16465,54537
-73.2344676,5.469038608,11872,Boyaca,Siachoque,7489,1405,8894
-74.25237927,5.493888498,12182,Boyaca,La Victoria,970,704,1674
-73.98962708,5.476943009,12524,Boyaca,Buenavista,5157,732,5889
-75.64034765,5.48440668,12207,Caldas,Marmato,7309,1146,8455
-75.67280898,5.434970197,11821,Caldas,Supia,12912,11935,24847
-74.0613133,5.430736566,11799,Boyaca,Coper,3490,711,4201
-73.34743562,5.457654224,12323,Boyaca,Soraca,5215,730,5945
-73.84786377,5.427000058,11700,Cundinamarca,Susa,5193,4589,9782
-76.00820572,5.368506722,12662,Risaralda,Mistrato,11153,4013,15166
-73.71789022,5.380034321,12082,Cundinamarca,Guacheta,7903,3614,11517
-73.7969114,5.392471168,11860,Cundinamarca,Fuquene,4979,235,5214
-73.2983879,5.41566885,11692,Boyaca,Viracacha,3096,381,3477
-75.4346875,5.356045271,11904,Caldas,Salamina,8598,11690,20288
-69.53041591,4.218912514,12499,Vichada,Cumaribo,24406,4312,28718
-73.95330127,5.332254481,11741,Cundinamarca,Carmen De Carupa,6802,1689,8491
-74.18199594,5.369468819,11756,Cundinamarca,Paime,4942,531,5473
-73.21923649,5.351351536,11656,Boyaca,Rondon,2503,508,3011
-73.40744922,5.40370253,12156,Boyaca,Boyaca,4641,433,5074
-75.58841891,5.380603324,11886,Caldas,La Merced,4562,2190,6752
-74.43002432,5.317324919,12254,Cundinamarca,La Palma,5935,3983,9918
-76.79074976,5.303888494,12266,Choco,El Canton Del San Pablo,3722,2491,6213
-72.72075429,5.34751987,12132,Boyaca,Pajarito,1520,890,2410
-73.55031893,5.359872952,12626,Boyaca,Ventaquemada,12440,1964,14404
-74.66515748,5.163822839,12303,Cundinamarca,Guaduas,16780,15051,31831
-74.09381969,5.290470921,11631,Cundinamarca,San Cayetano,4615,661,5276
-74.31327013,5.338844164,11643,Cundinamarca,Topaipi,4106,711,4817
-73.33374867,5.285001744,12157,Boyaca,Ramiriqui,6087,4702,10789
-73.29745315,5.363323839,12504,Boyaca,Cienaga,3988,1254,5242
-76.19165316,5.20529344,12354,Risaralda,Pueblo Rico,9109,2866,11975
-73.40873292,5.351810143,12613,Boyaca,Jenesano,5829,1607,7436
-75.75776909,5.319783176,11598,Risaralda,Quinchia,25460,7858,33318
-73.48094083,5.322104791,12131,Boyaca,Nuevo Colon,5030,1045,6075
-75.8570373,5.312344255,12426,Risaralda,Guatica,11985,3767,15752
-76.45608175,5.274994877,11803,Choco,Tado,6795,11246,18041
-75.62368932,5.282661491,12340,Caldas,Filadelfia,8578,4159,12737
-73.84422869,5.297692412,12133,Cundinamarca,Villa De San Diego De Ubate,14391,22042,36433
-72.5716454,5.099226116,12099,Casanare,Aguazul,7916,20411,28327
-73.71018939,5.285341863,12352,Cundinamarca,Lenguazaque,7675,2094,9769
-73.42777948,5.284600519,11862,Boyaca,Tibana,8165,1546,9711
-72.78642697,5.228454943,12062,Casanare,Recetor,1775,833,2608
-72.88951092,5.192375031,11911,Casanare,Chameza,661,1159,1820
-73.53457526,5.272624568,12127,Boyaca,Turmeque,5148,2434,7582
-73.18276118,5.258241337,11848,Boyaca,Zetaquira,4149,1022,5171
-75.50983745,5.255188466,11762,Caldas,Aranzazu,5948,6867,12815
-75.3133748,5.218515745,11693,Caldas,Marulanda,2341,1148,3489
-74.20982714,5.247921482,11687,Cundinamarca,Villagomez,1563,620,2183
-75.08028881,5.290684062,12301,Caldas,Marquetalia,8992,5806,14798
-73.60535966,5.208820159,11622,Cundinamarca,Villapinzon,11216,5357,16573
-75.17979099,5.219289194,11669,Caldas,Manzanares,15240,9864,25104
-74.31818662,5.243797156,11829,Cundinamarca,El Penon,4527,450,4977
-74.93054855,5.21451718,12209,Tolima,Mariquita,9404,23529,32933
-74.807143,5.15720949,12313,Tolima,Honda,893,26417,27310
-73.80756592,5.21625914,12118,Cundinamarca,Cucunuba,5857,1156,7013
-75.79168868,5.204270289,12195,Caldas,Anserma,14763,20334,35097
-75.08277317,5.172972582,12470,Tolima,Fresno,16875,14442,31317
-73.07286767,5.204034602,12442,Boyaca,San Eduardo,1201,723,1924
-75.52959741,5.172067043,11941,Caldas,Neira,14173,13967,28140
-74.43000654,5.189433848,12360,Cundinamarca,La Pena,5988,1001,6989
-74.18066737,5.149937443,11962,Cundinamarca,Pacho,11917,13497,25414
-73.87912911,5.228980572,12270,Cundinamarca,Sutatausa,3383,1359,4742
-75.91387635,5.194985294,11850,Risaralda,Belen De Umbria,14893,12824,27717
-73.37146801,5.179146696,12089,Boyaca,Chinavita,2557,1184,3741
-73.12605761,5.185133957,11961,Boyaca,Berbeo,1501,412,1913
-73.48340596,5.184111061,11768,Boyaca,Umbita,8540,1565,10105
-73.96940764,5.176373806,11809,Cundinamarca,Tausa,6919,796,7715
-74.50133452,5.169776622,12416,Cundinamarca,Utica,2367,2574,4941
-76.48949619,5.080651117,12004,Choco,Condoto,4005,9093,13098
-76.03788967,5.121155229,11963,Risaralda,Apia,10358,7156,17514
-73.70005666,5.104010331,11663,Cundinamarca,Choconta,10292,9220,19512
-76.89342459,4.767412971,12292,Choco,Istmina,5319,18320,23639
-73.80360007,5.12612056,12064,Cundinamarca,Suesca,7841,6401,14242
-73.2121222,5.122170687,11802,Boyaca,Miraflores,4967,4694,9661
-74.41340013,5.117419758,11774,Cundinamarca,Nimaima,3316,2207,5523
-74.32563434,5.112382175,11958,Cundinamarca,Vergara,6455,1275,7730
-73.03077224,5.068318806,11748,Boyaca,Paez,2205,1164,3369
-71.61752528,4.880715282,12100,Casanare,Orocue,3608,4109,7717
-75.79499597,5.11184193,11807,Caldas,Risaralda,6528,4151,10679
-73.42375618,5.109985819,12136,Boyaca,Pachavita,2633,469,3102
-73.33943221,5.058158107,11674,Boyaca,Garagoa,4219,12301,16520
-74.99020819,5.063517557,12560,Tolima,Falan,7589,1688,9277
-73.99488393,5.084728783,11696,Cundinamarca,Cogua,12920,5356,18276
-75.54191424,5.071635939,12514,Caldas,Manizales,26660,353312,379972
-75.26952639,5.061576691,12593,Tolima,Herveo,6877,2265,9142
-72.65069568,4.664479894,12478,Casanare,Tauramena,6086,10153,16239
-75.8353567,5.073362413,11630,Caldas,San Jose,6041,1531,7572
-74.04205484,5.026321531,12417,Cundinamarca,Zipaquira,13024,88527,101551
-74.52116944,5.082631279,11584,Cundinamarca,Quebradanegra,4333,358,4691
-75.04526131,5.075652642,12484,Tolima,Palocabildo,6908,2701,9609
-73.90604648,5.069672763,12522,Cundinamarca,Nemocon,6313,4990,11303
-73.48076482,5.080749738,11834,Boyaca,La Capilla,2148,1030,3178
-75.69553237,5.045722955,12525,Caldas,Palestina,12218,5819,18037
-75.91924426,5.045097131,12490,Caldas,Viterbo,2470,10689,13159
-73.64370611,5.014887105,12599,Cundinamarca,Macheta,5403,1444,6847
-74.88129863,4.988725169,12242,Tolima,Armero,4200,8864,13064
-73.54001798,5.059928906,12101,Cundinamarca,Tibirita,2513,505,3018
-75.21381751,5.002980905,12667,Tolima,Casabianca,5406,1503,6909
-76.02012987,5.027967485,12672,Risaralda,Santuario,8556,6864,15420
-74.24784058,5.044558542,12077,Cundinamarca,Supata,3561,1391,4952
-74.40463684,5.047676398,12042,Cundinamarca,Nocaima,5892,1842,7734
-73.16713403,4.977326572,12359,Boyaca,Campohermoso,3212,853,4065
-73.45505167,5.036761614,11705,Boyaca,Tenza,3445,1206,4651
-74.50497893,5.000092333,12017,Cundinamarca,Villeta,9566,14774,24340
-76.55064952,4.872728351,11589,Choco,Novita,5306,2561,7867
-73.80044849,4.988264305,12421,Cundinamarca,Sesquile,7452,2365,9817
-74.17563219,4.950357035,11578,Cundinamarca,Subachoque,8040,5001,13041
-75.85169898,4.981160487,11754,Caldas,Belalcazar,6845,5027,11872
-75.70417969,4.97522788,11825,Caldas,Chinchina,8383,45113,53496
-72.23161876,4.648024743,12419,Casanare,Mani,4099,7078,11177
-76.08330163,4.991791426,11870,Risaralda,La Celia,5331,3430,8761
-74.35933631,4.960481677,12335,Cundinamarca,La Vega,8702,4563,13265
-73.50528567,4.988780314,12075,Boyaca,Guateque,3036,7135,10171
-75.78662908,4.931793921,12546,Risaralda,Marsella,9969,11488,21457
-75.46445222,4.938706934,11743,Caldas,Villamaria,9655,36667,46322
-73.58582858,4.957193621,12076,Cundinamarca,Manta,3555,1072,4627
-75.19033115,4.942093611,12554,Tolima,Villahermosa,7750,3446,11196
-73.32028596,4.95050516,12334,Boyaca,Macanal,3764,941,4705
-73.45454379,4.99644019,12038,Boyaca,Sutatenza,3823,743,4566
-73.89988807,4.986463828,12107,Cundinamarca,Gachancipa,5004,5882,10886
-74.42797316,4.928911161,12459,Cundinamarca,Sasaima,7973,2232,10205
-74.28469935,4.94305114,12645,Cundinamarca,San Francisco,5418,2886,8304
-72.87900346,4.820157476,11819,Casanare,Monterrey,2533,10218,12751
-73.94827004,4.948100828,11775,Cundinamarca,Tocancipa,14532,9622,24154
-75.98727322,4.917794976,12257,Risaralda,Balboa,4544,1809,6353
-74.65953691,4.945544167,11864,Cundinamarca,Chaguani,3297,804,4101
-73.46036992,4.92464839,12191,Boyaca,Somondoco,3598,761,4359
-74.10208849,4.935124391,12108,Cundinamarca,Tabio,11569,9281,20850
-76.33791332,4.886985992,11893,Choco,San Jose Del Palmar,3913,1155,5068
-73.41130827,4.92260471,12476,Boyaca,Almeida,1985,309,2294
-73.83988633,4.911213447,12588,Cundinamarca,Guatavita,4914,1771,6685
-76.12175236,4.891635217,11766,Valle del Cauca,El Aguila,8218,2471,10689
-73.52968164,4.919365476,11885,Boyaca,Guayata,5024,1344,6368
-73.02275863,4.783124299,11739,Casanare,Sabanalarga,1888,1546,3434
-74.0526047,4.912809545,12453,Cundinamarca,Cajica,18280,27111,45391
-74.68247864,4.830764974,12423,Cundinamarca,San Juan De Rio Seco,6914,2878,9792
-75.57196825,4.832213408,12355,Risaralda,Santa Rosa De Cabal,13631,56329,69960
-74.57537778,4.88149096,11887,Cundinamarca,Viani,2899,1216,4115
-73.9861621,4.871573225,12450,Cundinamarca,Sopo,8389,12834,21223
-73.15099678,4.79325783,12605,Boyaca,San Luis De Gaceno,4277,2106,6383
-75.10833352,4.835620645,12640,Tolima,Libano,16081,26188,42269
-74.95512807,4.853891713,12413,Tolima,Lerida,4271,15218,19489
-74.46906841,4.884489565,12577,Cundinamarca,Alban,4361,1591,5952
-73.67317522,4.853385264,11957,Cundinamarca,Gacheta,7146,3263,10409
-74.50988924,4.866144517,11675,Cundinamarca,Guayabal De Siquima,2788,864,3652
-73.28242697,4.793686428,12081,Boyaca,Santa Maria,2117,2518,4635
-74.83491515,4.806445721,12686,Tolima,Ambalema,1864,5810,7674
-75.88905809,4.895382184,12174,Risaralda,La Virginia,573,30688,31261
-73.86682986,4.795482665,12454,Cundinamarca,Guasca,8422,4020,12442
-74.25438286,4.858762878,12415,Cundinamarca,El Rosal,4301,9201,13502
-73.3739149,4.839487811,11935,Boyaca,Chivor,1714,518,2232
-74.05847064,4.844513601,12394,Cundinamarca,Chia,24055,73841,97896
-75.27882047,4.817132615,12538,Tolima,Murillo,3466,1609,5075
-75.73320535,4.77003429,11928,Risaralda,Pereira,72315,371239,443554
-74.16568398,4.823191298,12052,Cundinamarca,Tenjo,10582,7884,18466
-74.55203148,4.828949743,11855,Cundinamarca,Bituima,2240,417,2657
-74.35602465,4.819197871,11998,Cundinamarca,Facatativa,11812,95640,107452
-75.68980949,4.825197986,12518,Risaralda,Dosquebradas,9457,169844,179301
-73.49867345,4.786126712,12696,Cundinamarca,Ubala,9438,1280,10718
-76.09142601,4.78415938,11851,Valle del Cauca,Ansermanuevo,8980,11712,20692
-71.63700809,3.993825915,11800,Meta,Puerto Gaitan,11074,6232,17306
-74.27706753,4.755648014,12196,Cundinamarca,Madrid,8567,53858,62425
-76.30637177,4.760833645,12668,Valle del Cauca,El Cairo,6444,2912,9356
-74.14335179,4.776013577,12508,Cundinamarca,Cota,9122,10787,19909
-74.78046039,4.709592426,12220,Cundinamarca,Beltran,1597,350,1947
-74.48412091,4.776206554,12627,Cundinamarca,Anolaima,9343,3967,13310
-74.21445363,4.288578982,12295,Cundinamarca,Santafe de Bogota,15606,6824510,6840116
-73.71124706,4.687132075,12125,Cundinamarca,Junin,7627,821,8448
-75.97450791,4.686013809,12474,Valle del Cauca,Cartago,2830,122001,124831
-76.58814696,4.554898455,11826,Choco,Sipi,3188,293,3481
-73.93591054,4.686778988,11601,Cundinamarca,La Calera,14248,9520,23768
-76.22804035,4.707120194,12380,Valle del Cauca,Argelia,3605,3088,6693
-74.41186301,4.742695519,11873,Cundinamarca,Zipacon,3310,1706,5016
-74.93668821,4.691769189,12066,Tolima,Venadillo,5445,13324,18769
-74.57811389,4.701716255,12200,Cundinamarca,Quipile,7523,694,8217
-75.22390395,4.726264428,12390,Tolima,Santa Isabel,4298,2267,6565
-74.21787307,4.730576365,12072,Cundinamarca,Funza,4270,57110,61380
-73.54694382,4.614130836,12466,Cundinamarca,Gachala,4025,1891,5916
-73.62002292,4.709836135,11869,Cundinamarca,Gama,3204,669,3873
-74.33705701,4.687190139,12233,Cundinamarca,Bojaca,2079,6800,8879
-73.31222178,4.642614556,12696,Cundinamarca,Ubala,9438,1280,10718
-74.69525654,4.678552562,12515,Cundinamarca,Puli,2356,589,2945
-74.48706652,4.704235419,11789,Cundinamarca,Cachipay,6795,3200,9995
-75.81803948,4.697216003,12435,Valle del Cauca,Ulloa,3087,2658,5745
-74.38989447,4.666488523,12567,Cundinamarca,Tena,6872,697,7569
-73.18559208,4.416901207,11892,Cundinamarca,Paratebueno,5343,2073,7416
-74.25132139,4.65841656,11711,Cundinamarca,Mosquera,3342,59884,63226
-75.22090727,4.623652228,11818,Tolima,Anzoategui,14377,2045,16422
-76.33852048,4.608055969,12583,Valle del Cauca,Versalles,4215,4055,8270
-75.70974243,4.644501605,11672,Quindio,Filandia,6434,6487,12921
-72.84618967,4.500171578,12027,Casanare,Villanueva,3762,18044,21806
-75.53503057,4.611363151,11678,Quindio,Salento,3650,3597,7247
-76.1307808,4.622154531,11900,Valle del Cauca,Toro,6426,9487,15913
-75.0141733,4.571737631,12483,Tolima,Alvarado,5814,3158,8972
-74.49432252,4.628604431,12507,Cundinamarca,La Mesa,12973,14192,27165
-75.81448044,4.651210452,12032,Valle del Cauca,Alcala,8265,9303,17568
-73.80666408,4.514916239,12180,Cundinamarca,Fomeque,8056,4101,12157
-72.99366863,4.474491368,12400,Meta,Barranca De Upia,1010,2187,3197
-75.68536142,4.59939743,12371,Quindio,Circasia,7410,20032,27442
-75.26356239,4.436262495,12013,Tolima,Ibague,29754,468647,498401
-73.93903897,4.566877637,12658,Cundinamarca,Choachi,7715,3450,11165
-74.36328601,4.586849151,11697,Cundinamarca,San Antonio Del Tequendama,11526,848,12374
-74.70940859,4.55678281,11694,Cundinamarca,Jerusalen,2116,607,2723
-73.42364636,4.439608142,12616,Cundinamarca,Medina,6426,3419,9845
-75.837594,4.593422214,12234,Quindio,Quimbaya,6834,27222,34056
-74.25226583,4.528749252,12535,Cundinamarca,Soacha,5452,396555,402007
-74.54687502,4.543652027,12578,Cundinamarca,Anapoima,6638,4865,11503
-74.93942494,4.492616583,11698,Tolima,Piedras,3804,1623,5427
-74.59773307,4.509010325,12526,Cundinamarca,Apulo,4670,3152,7822
-75.979024,4.570232533,11752,Valle del Cauca,Obando,4623,9757,14380
-74.4464332,4.541724787,11627,Cundinamarca,El Colegio,12794,7636,20430
-74.66640436,4.436928215,11763,Cundinamarca,Tocaima,7220,9976,17196
-74.81009611,4.500748091,12128,Cundinamarca,Guataqui,1207,1282,2489
-75.51860305,4.424673105,11615,Tolima,Cajamarca,10428,9361,19789
-76.15084131,4.522110581,12511,Valle del Cauca,La Union,7496,24302,31798
-75.8163929,4.523128553,12581,Quindio,Montenegro,7705,32169,39874
-75.72328557,4.509465035,11701,Quindio,Armenia,7816,273114,280930
-76.3913628,4.490735573,11623,Valle del Cauca,El Dovio,4152,5396,9548
-75.98117305,4.47621106,12262,Valle del Cauca,La Victoria,4584,9550,14134
-73.99659508,4.484354457,12059,Cundinamarca,Ubaque,6015,864,6879
-74.35646742,4.512035775,12230,Cundinamarca,Granada,5267,1609,6876
-75.6672124,4.461360628,11842,Quindio,Calarca,17541,56200,73741
-76.99252565,4.279443424,11618,Choco,El Litoral Del San Juan,11186,1058,12244
-74.28288329,4.449078507,12356,Cundinamarca,Sibate,10487,21188,31675
-73.69636103,4.429062443,12293,Meta,San Juanito,1242,622,1864
-76.23714039,4.428985478,12053,Valle del Cauca,Roldanillo,10543,24155,34698
-75.82740403,4.440178425,11647,Quindio,La Tebaida,2895,30609,33504
-74.5081051,4.420549547,11579,Cundinamarca,Viota,9410,4157,13567
-74.38426609,4.425134016,12676,Cundinamarca,Silvania,15702,5690,21392
-74.95964869,4.336128519,12674,Tolima,Coello,7484,1533,9017
-76.09686555,4.359757643,12280,Valle del Cauca,Zarzal,12184,28799,40983
-74.07538369,4.414811518,12291,Cundinamarca,Chipaque,6054,2341,8395
-75.89821139,4.192998304,12279,Valle del Cauca,Sevilla,12811,35061,47872
-73.74433623,4.354278236,12434,Meta,El Calvario,1535,753,2288
-73.95722033,4.387062072,11740,Cundinamarca,Caqueza,10032,6410,16442
-74.84276697,4.369788429,11897,Cundinamarca,Narino,724,1368,2092
-72.98028336,4.285325544,12333,Meta,Cabuyaro,2234,1426,3660
-76.41204543,4.331362474,11884,Valle del Cauca,Bolivar,11634,3726,15360
-74.83505219,4.318006858,12410,Cundinamarca,Girardot,3475,94359,97834
-75.85576278,4.311062812,12227,Valle del Cauca,Caicedonia,6807,24140,30947
-75.66658704,4.382822277,12040,Quindio,Cordoba,2437,2997,5434
-75.76852681,4.381069414,11985,Quindio,Buenavista,1866,1220,3086
-73.46964343,4.199484086,12608,Meta,Restrepo,3500,6678,10178
-74.06204823,4.341851602,12211,Cundinamarca,Une,4298,3716,8014
-72.61632928,4.039267909,12556,Meta,Puerto Lopez,10395,18395,28790
-74.68999905,4.358418893,11975,Cundinamarca,Agua De Dios,2750,9072,11822
-74.26947034,4.30291945,12016,Cundinamarca,Pasca,8572,2550,11122
-74.38333047,4.292399517,12509,Cundinamarca,Fusagasuga,22706,86232,108938
-75.38963415,4.219545701,11987,Tolima,Rovira,12257,9408,21665
-73.85900962,4.295866395,11999,Cundinamarca,Quetame,5222,1348,6570
-74.5163928,4.306063058,11950,Cundinamarca,Tibacuy,4261,582,4843
-75.7132678,4.311453134,12682,Quindio,Pijao,2856,3827,6683
-74.75432642,4.291284274,11676,Cundinamarca,Ricaurte,4715,3430,8145
-73.97403828,4.301785135,12121,Cundinamarca,Fosca,5157,1497,6654
-74.6377682,4.282871744,11577,Cundinamarca,Nilo,11011,3163,14174
-75.75700481,4.227375661,12411,Quindio,Genova,4698,4936,9634
-76.1279457,4.195744688,11758,Valle del Cauca,Bugalagrande,10101,11500,21601
-75.6100928,4.097384704,12061,Tolima,Roncesvalles,4474,1795,6269
-75.14103809,4.110878974,12047,Tolima,San Luis,15557,3705,19262
-73.49149722,4.07423647,12312,Meta,Villavicencio,23758,356464,380222
-74.07789101,4.15889778,12058,Cundinamarca,Gutierrez,2633,856,3489
-73.32251818,4.220168239,12607,Meta,Cumaral,5895,10680,16575
-74.86149806,4.228791653,12247,Tolima,Flandes,4234,23709,27943
-74.41464222,4.212504192,11914,Cundinamarca,Arbelaez,7107,4699,11806
-75.19391733,4.171989388,12178,Tolima,Valle De San Juan,3708,2470,6178
-76.38639916,4.206471078,11859,Valle del Cauca,Trujillo,11201,7466,18667
-74.67206125,4.178497271,12675,Tolima,Melgar,5945,26829,32774
-74.56508109,4.120818379,11952,Tolima,Icononzo,8313,3336,11649
-73.88114289,4.175083512,11976,Cundinamarca,Guayabetal,3429,1351,4780
-74.83622887,4.047827745,11685,Tolima,Suarez,2574,1945,4519
-77.08586349,3.589503874,12629,Valle del Cauca,Buenaventura,35847,292947,328794
-74.48952429,4.154216782,11977,Cundinamarca,Pandi,4453,1015,5468
-74.76776731,4.107711303,11910,Tolima,Carmen De Apicala,2117,6277,8394
-76.14317889,4.113758276,12330,Valle del Cauca,Andalucia,4078,14058,18136
-74.91232486,4.150887741,12469,Tolima,Espinal,20439,55787,76226
-74.9983571,4.047959985,12530,Tolima,Guamo,18428,16353,34781
-73.78019959,4.009280924,12026,Meta,Acacias,9444,44775,54219
-74.35901726,4.129559418,11716,Cundinamarca,San Bernardo,6446,3888,10334
-76.41592501,4.102803337,12586,Valle del Cauca,Riofrio,11925,5451,17376
-76.0343783,4.027010439,11611,Valle del Cauca,Tulua,26353,160922,187275
-76.26123492,3.999367448,11714,Valle del Cauca,San Pedro,9802,5982,15784
-74.70695335,3.980310932,12226,Tolima,Cunday,8363,2326,10689
-76.63905753,3.954522198,12327,Valle del Cauca,Calima,6326,9171,15497
-75.29316259,3.925038134,12045,Tolima,Ortega,26307,7566,33873
-74.4734479,4.041592384,12193,Cundinamarca,Venecia,2972,962,3934
-75.50903138,3.953392047,12181,Tolima,San Antonio,10881,4450,15331
-76.42493434,3.931698105,11953,Valle del Cauca,Yotoco,8006,7557,15563
-73.98350374,3.922061384,12555,Meta,Guamal,2852,6045,8897
-74.47187685,3.874446827,11770,Cundinamarca,Cabrera,3652,1032,4684
-76.11854636,3.874773961,11934,Valle del Cauca,Guadalajara De Buga,17000,99893,116893
-68.40959186,3.259999847,11838,Guainia,Puerto Inirida,7073,10793,17866
-75.62452752,3.7370037,11861,Tolima,Chaparral,21374,25338,46712
-74.91039947,3.848490618,12694,Tolima,Purificacion,12225,15648,27873
-74.11422113,3.75884138,11804,Meta,Cubarral,2185,2967,5152
-73.21784823,3.798414823,11982,Meta,San Carlos De Guaroa,3515,3087,6602
-74.64962255,3.821683178,11781,Tolima,Villarrica,3854,2372,6226
-75.03473451,3.888734397,12594,Tolima,Saldana,6692,8298,14990
-75.17398645,3.727802536,11880,Tolima,Coyaima,23832,4224,28056
-73.53548348,3.793866001,12461,Meta,Castilla La Nueva,3898,3169,7067
-76.72482399,3.642440607,12591,Valle del Cauca,Dagua,26963,8307,35270
-72.96159556,3.533739275,11610,Meta,San Martin,3180,18170,21350
-76.56737226,3.795929272,12363,Valle del Cauca,Restrepo,7273,8532,15805
-76.49363391,3.732818472,12384,Valle del Cauca,Vijes,3930,5857,9787
-76.30813074,3.775007752,12168,Valle del Cauca,Guacari,13101,18701,31802
-74.89714261,3.728176807,11634,Tolima,Prado,5285,3476,8761
-76.20314316,3.73840471,12243,Valle del Cauca,Ginebra,11268,8000,19268
-74.72033699,3.39928973,11750,Huila,Colombia,8939,2234,11173
-76.60773864,3.668018271,11723,Valle del Cauca,La Cumbre,8832,2290,11122
-76.22355287,3.677383571,11751,Valle del Cauca,El Cerrito,21296,33302,54598
-74.8462394,3.575829209,12175,Tolima,Dolores,5506,3658,9164
-67.62845841,3.298319413,12406,Guainia,Cacahual,1592,0,1592
-76.25218521,3.553941729,11690,Valle del Cauca,Palmira,56348,228122,284470
-75.88387879,3.469797457,12379,Tolima,Rioblanco,21321,4315,25636
-73.79426463,3.654326113,12212,Meta,El Dorado,2015,1276,3291
-69.30453657,3.240169424,12048,Guainia,Barranco Minas,4384,0,4384
-75.15157125,3.536454542,11936,Tolima,Natagaima,9672,13540,23212
-74.45686604,3.011769345,12652,Meta,Uribe,9811,2669,12480
-74.04172697,3.4437938,11805,Meta,Lejanias,5678,3880,9558
-73.96442115,3.577227501,12536,Meta,El Castillo,5042,1833,6875
-76.54377797,3.569908503,12367,Valle del Cauca,Yumbo,11265,80927,92192
-75.53123033,3.409733195,11933,Tolima,Ataco,17340,4602,21942
-73.76213341,3.485888217,11737,Meta,Granada,9231,40941,50172
-76.59957732,3.399817254,12601,Valle del Cauca,Cali,36737,2083171,2119908
-74.13674493,3.052661988,11688,Meta,Mesetas,7632,3063,10695
-73.62950799,3.341675803,11908,Meta,Fuente De Oro,5418,5654,11072
-74.96218186,3.37460345,12585,Tolima,Alpujarra,3352,1822,5174
-76.18534754,3.417039288,11786,Valle del Cauca,Pradera,6597,42246,48843
-73.23215051,3.217939462,12388,Meta,Puerto Lleras,7534,3132,10666
-76.42466643,3.383657544,11916,Valle del Cauca,Candelaria,50676,19620,70296
-71.94964157,3.09705754,11898,Meta,Mapiripan,11983,1247,13230
-75.1619153,3.265071695,11856,Huila,Villavieja,4937,2437,7374
-75.38144319,3.253804021,12418,Huila,Aipe,7639,12144,19783
-76.2153493,3.303691444,12258,Valle del Cauca,Florida,14951,41057,56008
-75.85353467,3.166050978,11830,Tolima,Planadas,22209,7208,29417
-76.66502698,3.199857931,12397,Valle del Cauca,Jamundi,31235,65758,96993
-73.81149022,3.211780272,11791,Meta,San Juan De Arama,5824,3394,9218
-76.45364715,3.266924982,12302,Cauca,Puerto Tejada,5315,39009,44324
-76.23182041,3.226039479,12642,Cauca,Miranda,11224,22021,33245
-74.98730941,3.164918265,11682,Huila,Baraya,4606,4573,9179
-76.35689669,3.199693025,11657,Cauca,Padilla,4417,3919,8336
-77.31315566,3.011654127,11606,Cauca,Lopez,15009,4317,19326
-75.33997659,3.011458093,11927,Huila,Neiva,20072,295961,316033
-76.39808153,3.069919189,11605,Cauca,Caloto,32773,4148,36921
-76.21154304,3.136683037,11576,Cauca,Corinto,16157,12153,28310
-73.65331597,2.787644025,12395,Meta,Vistahermosa,14882,6166,21048
-75.07932451,3.041199493,12319,Huila,Tello,7927,5626,13553
-76.53440547,2.988039092,11931,Cauca,Santander De Quilichao,40031,40251,80282
-73.13955609,2.782726775,11875,Meta,Puerto Rico,12407,4961,17368
-76.70311453,2.993271672,11749,Cauca,Buenos Aires,25029,1932,26961
-76.21804385,2.987862867,11769,Cauca,Toribio,24811,1701,26512
-68.16984388,2.419536383,12391,Guainia,Puerto Colombia,3753,0,3753
-75.73069129,2.970985455,12425,Huila,Santa Maria,7469,2749,10218
-78.23215225,3.005629573,12695,Cauca,Timbiqui,17424,4310,21734
-75.44856167,2.879198759,11757,Huila,Palermo,14562,12655,27217
-76.80702815,2.905696262,11863,Cauca,Suarez,14596,4648,19244
-76.06536919,2.723378649,11969,Cauca,Paez,29074,2726,31800
-75.71134006,2.843228142,11709,Huila,Teruel,4145,4081,8226
-76.32694227,2.845348484,12477,Cauca,Jambalo,13581,1044,14625
-76.50838273,2.815945272,12366,Cauca,Caldono,29548,1358,30906
-77.5487591,2.710049446,12695,Cauca,Timbiqui,17424,4310,21734
-74.46443132,1.686797975,11788,Caqueta,San Vicente Del Caguan,25663,31011,56674
-76.77517831,2.793854317,11822,Cauca,Morales,22786,1605,24391
-75.79851424,2.767148624,12022,Huila,Iquira,8167,2460,10627
-75.21615056,2.77412718,12628,Huila,Rivera,7717,8967,16684
-71.91384906,2.354057104,12475,Guaviare,San Jose Del Guaviare,19131,34863,53994
-77.09760255,2.571150505,12176,Cauca,El Tambo,40094,5710,45804
-72.65970116,2.718144037,11744,Meta,Puerto Concordia,8398,7566,15964
-76.59737402,2.702145442,12598,Cauca,Piendamo,23110,12694,35804
-76.37642646,2.667773866,12606,Cauca,Silvia,26850,4110,30960
-76.75186357,2.648972723,12681,Cauca,Cajibio,33120,1586,34706
-75.8519078,2.663772321,12660,Huila,Nataga,3918,1913,5831
-75.37203228,2.655731227,11959,Huila,Campoalegre,8200,23986,32186
-77.67021848,2.436065765,12051,Cauca,Guapi,12390,16273,28663
-75.53223629,2.635280874,12246,Huila,Yaguara,1231,6634,7865
-75.2334172,2.544756782,11989,Huila,Algeciras,9587,13840,23427
-75.715463,2.53524125,11776,Huila,Tesalia,4019,4855,8874
-77.91898378,2.370570551,12544,Narino,Santa Barbara,12598,2734,15332
-76.1667321,2.514440751,11841,Cauca,Inza,24849,2140,26989
-74.06840954,2.147515454,12268,Meta,La Macarena,20541,3623,24164
-77.91394619,2.250905723,11733,Narino,El Charco,18965,6768,25733
-75.47689225,2.533888067,12683,Huila,Hobo,1606,4939,6545
-76.41435963,2.462673563,11617,Cauca,Totoro,16078,1352,17430
-78.49317748,2.419938435,12019,Narino,Mosquera,8192,3803,11995
-78.28842451,2.289654202,11970,Narino,La Tola,2752,5656,8408
-76.64338095,2.476775456,11573,Cauca,Popayan,30534,226978,257512
-75.53632494,2.380031426,12579,Huila,Gigante,13922,14230,28152
-76.10447812,2.320559513,12617,Huila,La Plata,31483,20706,52189
-67.46266776,2.111626016,12151,Guainia,San Felipe,1362,0,1362
-78.3541496,2.187008742,12375,Narino,Olaya Herrera,23777,3582,27359
-76.77186934,2.369964598,12572,Cauca,Timbio,19110,10918,30028
-75.77093917,2.400464645,12201,Huila,Paicol,3183,2025,5208
-78.61140113,2.166480818,12179,Narino,Francisco Pizarro,5822,5207,11029
-76.64739622,2.245067649,11808,Cauca,Sotara,15305,391,15696
-76.48183766,2.228339396,11926,Cauca,Purace,13160,1810,14970
-77.2842395,2.274515282,12259,Cauca,Argelia,21383,3155,24538
-75.74884275,2.283488874,11874,Huila,Agrado,3903,4586,8489
-75.12452599,1.885493944,12328,Caqueta,Puerto Rico,19791,12617,32408
-77.08928407,2.159412796,12351,Cauca,Patia,21516,11679,33195
-69.10950993,1.937470305,11648,Guainia,Pana Pana,2224,0,2224
-75.83139105,2.229866102,12202,Huila,Pital,8480,4355,12835
-76.81409104,2.26573885,12534,Cauca,Rosas,11221,1445,12666
-75.5723814,2.195445793,11836,Huila,Garzon,36368,33455,69823
-78.42352949,1.937676943,12000,Narino,Roberto Payan,16029,863,16892
-76.78590608,2.19664956,12240,Cauca,La Sierra,9512,1425,10937
-75.28588157,1.708614421,12188,Caqueta,El Doncello,8168,13379,21547
-71.57562216,1.926077195,12138,Guaviare,El Retorno,11715,7348,19063
-76.20477849,2.176728812,12147,Huila,La Argentina,7929,3663,11592
-77.22775862,2.106754839,11785,Cauca,Balboa,17487,6115,23602
-75.89284314,2.133993543,12346,Huila,Tarqui,11614,4300,15914
-77.94348192,1.920490259,12677,Narino,Magui,13157,3237,16394
-76.04593538,2.07528946,12424,Huila,Oporapa,7887,2897,10784
-77.37562044,1.961464203,11943,Narino,Leiva,8549,3236,11785
-76.80985468,2.062298837,12506,Cauca,La Vega,35880,2555,38435
-75.62069244,1.742023795,12427,Caqueta,Florencia,21973,121898,143871
-76.20957077,2.064222526,12467,Huila,Saladoblanco,8083,2152,10235
-75.68450781,2.010175106,12225,Huila,Guadalupe,12868,4718,17586
-76.43471742,1.863853442,11990,Huila,San Agustin,19775,9912,29687
-75.80446038,2.054972968,11790,Huila,Altamira,1175,2416,3591
-76.28167258,1.976264449,12568,Huila,Isnos,18955,4747,23702
-78.69433133,1.587093424,11810,Narino,San Andres De Tumaco,75366,84668,160034
-76.98557225,1.820887839,12341,Cauca,Bolivar,38682,5296,43978
-75.98057998,1.990078321,11835,Huila,Elias,2234,1103,3337
-70.63332483,1.62700045,12054,Vaupes,Papunaua,879,0,879
-75.82878147,1.888441538,11814,Huila,Suaza,11092,3264,14356
-76.75025842,1.867203931,12284,Cauca,San Sebastian,11805,1015,12820
-75.97340989,1.912021423,12684,Huila,Timana,13327,6698,20025
-76.88272375,1.90887056,12251,Cauca,Almaguer,18812,1651,20463
-73.06305766,1.526375039,11888,Guaviare,Calamar,6377,4806,11183
-77.20669919,1.793633956,11906,Cauca,Mercaderes,13168,4534,17702
-76.16476992,1.759910942,12332,Huila,Pitalito,42592,59893,102485
-77.49181418,1.73298586,11640,Narino,Policarpa,11588,2197,13785
-76.57858289,1.510085396,12521,Cauca,Santa Rosa,7953,1626,9579
-77.39161674,1.786178813,11882,Narino,El Rosario,7811,3557,11368
-75.97069794,1.68855115,12688,Huila,Acevedo,21828,4556,26384
-75.41793689,1.531031157,12443,Caqueta,El Paujil,8935,8699,17634
-72.05656732,1.267007127,12563,Guaviare,Miraflores,8539,2772,11311
-76.13628348,1.632702595,12691,Huila,Palestina,8550,1699,10249
-75.42861674,1.34604783,12296,Caqueta,La Montanita,17936,4245,22181
-77.59295483,1.676805554,12670,Narino,Cumbitara,10108,1317,11425
-78.13846538,1.533458245,11639,Narino,Barbacoas,18668,11602,30270
-75.93257736,1.46012951,12571,Caqueta,Belen De Los Andaquies,5525,5556,11081
-77.09124753,1.712508653,11905,Cauca,Florencia,4715,1313,6028
-77.62909978,1.57786679,12618,Narino,Los Andes,10494,5755,16249
-77.02371457,1.670198864,11815,Narino,San Pablo,14205,3898,18103
-71.33787925,1.020809801,12043,Vaupes,Caruru,2607,635,3242
-77.35521797,1.59388354,12396,Narino,Taminango,13709,3509,17218
-77.08715176,1.639494873,11792,Narino,Colon,8384,1274,9658
-77.15916709,1.626886319,12320,Narino,La Union,17636,10278,27914
-77.24599815,1.557308281,12634,Narino,San Lorenzo,16234,2164,18398
-67.02656702,1.367860555,12309,Guainia,La Guadalupe,225,0,225
-70.40996762,0.972075639,11918,Vaupes,Mitu,15316,13066,28382
-76.92629066,1.5649499,12494,Narino,La Cruz,11374,6256,17630
-77.05409083,1.594809021,12149,Narino,Belen,3774,2813,6587
-75.78256291,1.491710933,12473,Caqueta,Morelia,2060,1658,3718
-77.70533268,1.512316154,12558,Narino,La Llanada,4578,1966,6544
-77.12982492,1.555318001,11652,Narino,San Pedro De Cartago,6439,612,7051
-77.03797785,1.53861687,12462,Narino,San Bernardo,11186,3075,14261
-77.08457904,1.499234926,12692,Narino,Alban,12940,6363,19303
-77.16345944,1.494103107,12213,Narino,Arboleda,6414,1029,7443
-77.7262562,1.437827162,12600,Narino,Samaniego,32923,17514,50437
-76.32935095,1.144205709,12449,Cauca,Piamonte,6540,543,7083
-77.41813496,1.447286515,12549,Narino,El Tambo,9018,5128,14146
-76.1655529,1.307808314,12239,Caqueta,San Jose Del Fragua,9342,4540,13882
-77.31677903,1.437542785,12044,Narino,Chachagui,6674,6118,12792
-76.97582962,1.37985861,12088,Narino,El Tablon De Gomez,13006,985,13991
-77.54421696,1.400542923,12084,Narino,Linares,9552,2269,11821
-78.22152656,1.205553878,12685,Narino,Ricaurte,12832,2072,14904
-77.17220371,1.338141165,12468,Narino,Buesaco,17547,4686,22233
-77.77375958,1.322877899,11915,Narino,Santacruz,16186,4484,20670
-77.41270181,1.356932617,12171,Narino,La Florida,9547,1876,11423
-74.60588614,0.852454891,11853,Caqueta,Cartagena Del Chaira,19252,9426,28678
-76.64038521,1.16001089,11603,Putumayo,Mocoa,10004,25751,35755
-77.48283195,1.307223225,11857,Narino,Sandona,14550,10670,25220
-75.72449151,1.129208,12404,Caqueta,Valparaiso,7942,3158,11100
-75.5460735,1.153818861,11797,Caqueta,Milan,9884,1603,11487
-75.93745315,1.241585978,11759,Caqueta,Albania,4157,2237,6394
-77.21098705,1.040568516,12214,Narino,Pasto,70241,312377,382618
-77.63086573,1.247218841,12103,Narino,Providencia,7627,4072,11699
-77.87004798,1.170476203,12533,Narino,Mallama,7822,1464,9286
-77.56931136,1.273410927,12119,Narino,Ancuya,7119,1872,8991
-76.85480868,1.151624961,11767,Putumayo,San Francisco,3095,3713,6808
-77.67034728,1.160049195,12109,Narino,Tuquerres,24995,16385,41380
-77.47820101,1.226516159,12493,Narino,Consaca,8588,1699,10287
-76.9601182,1.207359609,12113,Putumayo,Sibundoy,4122,9148,13270
-77.55837051,1.179305799,12326,Narino,Guaitarilla,9794,3918,13712
-76.03039949,1.098600113,12063,Caqueta,Curillo,4851,6270,11121
-77.44198557,1.161120799,12256,Narino,Yacuanquer,7562,2403,9965
-77.03589396,1.17281826,12637,Putumayo,Colon,2231,2935,5166
-73.27597232,0.228419879,12229,Caqueta,Solano,17569,1858,19427
-77.3864499,1.09190246,12550,Narino,Tangua,8751,2141,10892
-76.95186559,1.038047502,12569,Putumayo,Santiago,6076,3133,9209
-77.53331287,1.093313296,12382,Narino,Imues,6796,696,7492
-77.70660816,1.059541801,11865,Narino,Sapuyes,5814,1659,7473
-77.34093932,0.925082025,11684,Narino,Funes,4593,2398,6991
-75.78795238,0.953978438,12393,Caqueta,Solita,6087,3047,9134
-77.96741309,0.929725556,12036,Narino,Cumbal,24284,6712,30996
-77.59872026,1.053053497,12689,Narino,Ospina,6122,2099,8221
-76.72794567,0.896634401,12643,Putumayo,Villagarzon,11716,9069,20785
-69.6495678,0.79163546,11831,Vaupes,Yavarate,1269,0,1269
-77.78151133,1.00207354,12170,Narino,Guachucal,13616,3221,16837
-75.91281092,0.746516135,12028,Putumayo,Puerto Guzman,18973,3706,22679
-77.55000478,1.001012751,11607,Narino,Iles,6115,1721,7836
-77.67003794,0.936449628,12357,Narino,Pupiales,13189,5215,18404
-77.60933411,0.953786627,11660,Narino,Gualmatan,3523,2150,5673
-76.93474038,0.668216293,12457,Putumayo,Orito,26447,17207,43654
-77.73490699,0.912045058,12557,Narino,Aldana,5079,1771,6850
-77.54652123,0.933832253,12018,Narino,Contadero,4757,1910,6667
-77.31980071,0.821229357,11613,Narino,Puerres,6167,2812,8979
-77.77914551,0.881450918,12661,Narino,Cuaspud,6098,2003,8101
-77.36174801,0.791381885,12347,Narino,Cordoba,11406,2093,13499
-77.3864691,0.571368018,12031,Narino,Ipiales,34754,74362,109116
-77.40666858,0.747922024,11644,Narino,Potosi,11150,2002,13152
-70.89772644,0.157118253,12669,Vaupes,Pacoa,4459,0,4459
-76.41350999,0.676369059,11661,Putumayo,Puerto Caicedo,10062,4144,14206
-75.1029617,0.062976859,11727,Putumayo,Leguizamo,8936,7108,16044
-76.33682525,0.463502472,12112,Putumayo,Puerto Asis,28150,27609,55759
-76.95174341,0.392233394,11973,Putumayo,Valle Del Guamuez,27618,17341,44959
-76.76302903,0.316608241,12092,Putumayo,San Miguel,17086,4752,21838
-71.17507547,-0.723276145,11937,Amazonas,Miriti,1643,0,1643
-69.90809534,-0.759267861,11734,Vaupes,Taraira,873,175,1048
-72.0025323,-1.181530186,12079,Amazonas,Puerto Santander,2373,0,2373
-72.89294496,-1.316064408,11624,Amazonas,La Chorrera,3337,0,3337
-70.04608137,-1.514695806,11901,Amazonas,La Pedrera,3711,0,3711
-72.78309772,-2.077631442,12014,Amazonas,El Encanto,4376,0,4376
-70.01144885,-2.565344912,11707,Amazonas,Tarapaca,3775,0,3775
-70.04441583,-3.572238935,12436,Amazonas,Leticia,14021,23811,37832
-70.44792014,-3.649103037,11960,Amazonas,Puerto Narino,5135,1848,6983
-75.14838165,9.07510957,11680,Sucre,El Roble,5720,3713,9433
-73.06946693,10.43313201,11951,La Guajira,La Jagua Del Pilar,771,1950,2721
-72.53601967,11.2327174,12122,La Guajira,Albania,10632,10183,20815
-74.18252179,10.79877525,11780,Magdalena,Zona Bananera,52765,4239,57004
-74.11994676,10.26620174,11798,Magdalena,Algarrobo,4414,7364,11778
-74.78230756,10.23568004,11849,Magdalena,Concordia,6255,3989,10244
-74.69671282,10.12147093,12083,Magdalena,Zapayan,5452,3190,8642
-75.04990136,10.19650271,11595,Bolivar,Arroyohondo,3588,5216,8804
-74.28038542,10.07633182,12204,Magdalena,Sabanas De San Angel,11476,3419,14895
-74.33409154,9.731325914,11984,Magdalena,Nueva Granada,9830,6304,16134
-74.66383483,9.514657261,11590,Magdalena,Santa Barbara De Pinto,4958,6150,11108
-70.25415231,2.789223276,11783,Guainia,Mapiripana,3072,0,3072
-69.78612501,2.392015184,12244,Guainia,Morichal,752,0,752
-71.2170146,-0.116606057,12452,Amazonas,La Victoria,979,0,979
-71.14143104,-1.970787212,12164,Amazonas,Puerto Arica,1440,0,1440
-73.84833763,-0.969348318,12029,Amazonas,Puerto Alegria,1277,0,1277
-77.46240992,1.513245818,11602,Narino,El Penol,5943,908,6851
-77.36187179,1.309139353,11944,Narino,Narino,1027,3156,4183
-76.96313455,2.039603796,11846,Cauca,Sucre,7535,1420,8955
-76.49113721,3.179422859,12399,Cauca,Villa Rica,3976,10350,14326
-75.54536923,9.520611149,12221,Sucre,Santiago De Tolu,5790,22318,28108
-75.67484826,9.376434729,11877,Sucre,Covenas,8210,3121,11331
-74.74306324,5.513717632,12289,Caldas,La Dorada,7424,65501,72925
-74.95800613,5.536708983,12314,Caldas,Norcasia,2762,4141,6903
-75.06069324,5.580920241,12308,Caldas,Samana,20671,4978,25649
-76.70378467,6.023739859,12194,Choco,Medio Atrato,20309,728,21037
-76.60933839,5.565955479,12255,Choco,Atrato,5073,2488,7561
-76.81655499,5.558750373,11628,Choco,Rio Quito,5764,2124,7888
-76.59112854,5.365381833,12437,Choco,Certegui,4367,5157,9524
-76.6589321,5.249631543,11632,Choco,Union Panamericana,4965,3196,8161
-77.09176366,5.140540393,12245,Choco,Medio Baudo,11254,461,11715
-76.46217949,5.153647331,12273,Choco,Rio Iro,6809,1275,8084
-76.73921387,4.933539129,11717,Choco,Medio San Juan,8794,4233,13027
-76.80729464,7.362606901,11907,Choco,Belen De Bajira,7676,6231,13907
-76.47560717,7.330437732,11967,Antioquia,Mutata,12154,4274,16428
-76.99346547,7.019041682,12460,Choco,Carmen Del Darien,3999,1112,5111
-81.72093331,12.54555985,12020,Archipielago de San Andres,San Andres,17206,48421,65627
-81.37848521,13.3907852,12698,San Andres y Providecia,Santa Catalina,0,671,671
-81.37709856,13.35384695,12697,San Andres y Providecia,Providencia,4040,1100,5140